{
    "type": "FeatureCollection",
    "features": [
        {
            "type": "Feature",
            "properties": { "label": "Plan for the south expansion of Amsterdam by Jan Kalff in 1875" },
            "geometry": {
                "type": "Point",
                "coordinates": [
                    4.906932,
                    52.371487
                ]
            }
        },
        {
            "type": "Feature",
            "properties": { "label": "The Pesthuis, built in 1635 and demolished in 1937"},
            "geometry": {
                "type": "Point",
                "coordinates": [
                    4.906911,
                    52.371547
                ]
            }
        },
        {
            "type": "Feature",
            "properties": { "label": "Stads polder parcellation for agricultural, industrial, and recreational use, eighteenth century" },
            "geometry": {
                "type": "Point",
                "coordinates": [
                    4.906136,
                    52.371312
                ]
            }
        },
        {
            "type": "Feature",
            "properties": { "label": "Sitewide demolitions beginning in the 1890s" },
            "geometry": {
                "type": "Point",
                "coordinates": [
                    4.906144,
                    52.371076
                ]
            }
        },
        {
            "type": "Feature",
            "properties": { "label": "Sofia Park, appeared in the nineteenth century and demolished in the 1920s" },
            "geometry": {
                "type": "Point",
                "coordinates": [
                    4.906658,
                    52.370932
                ]
            }
        },
        {
            "type": "Feature",
            "properties": { "label": "Overtoomsevaart canal, filled between 1901 and 1902" },
            "geometry": {
                "type": "Point",
                "coordinates": [
                    4.90676,
                    52.370778
                ]
            }
        },
        {
            "type": "Feature",
            "properties": { "label": "Amsterdam fortification wall, demolished in 1874" },
            "geometry": {
                "type": "Point",
                "coordinates": [
                    4.905908,
                    52.370807
                ]
            }
        },
        {
            "type": "Feature",
            "properties": { "label": "The new grid plan of Buurt XX (now Helmersbuurt)" },
            "geometry": {
                "type": "Point",
                "coordinates": [
                    4.905746,
                    52.371128
                ]
            }
        },
        {
            "type": "Feature",
            "properties": { "label": "The new grid plan of Buurt XX (now Helmersbuurt)" },
            "geometry": {
                "type": "Point",
                "coordinates": [
                    4.906844,
                    52.371282
                ]
            }
        },
        {
            "type": "Feature",
            "properties": { "label": "The new grid plan of Buurt XX (now Helmersbuurt)" },
            "geometry": {
                "type": "Point",
                "coordinates": [
                    4.9067797,
                    52.3717217
                ]
            }
        }
    ]
}